[
  {
    "NAME": "RIGOLET",
    "City": "Rigolet",
    "PROV": "NL",
    "Lng": -58.4575,
    "Lat": 54.1797,
    "LocationID": "CZ2"
  },
  {
    "NAME": "SAULT STE. MARIE AIRPORT",
    "City": "SAULT STE. MARIE",
    "PROV": "ON",
    "Lng": -84.5086,
    "Lat": 46.4832,
    "LocationID": "YAM"
  },
  {
    "NAME": "RANKIN INLET",
    "City": "RANKIN INLET",
    "PROV": "NU",
    "Lng": -92.1111,
    "Lat": 62.8097,
    "LocationID": "YRT"
  },
  {
    "NAME": "ST. CATHARINES/NIAGARA DISTRICT",
    "City": "NIAGARA-ON-THE-LAKE",
    "PROV": "ON",
    "Lng": -79.1718,
    "Lat": 43.1917,
    "LocationID": "YSN"
  },
  {
    "NAME": "SIOUX LOOKOUT",
    "City": "SIOUX LOOKOUT",
    "PROV": "ON",
    "Lng": -91.9052,
    "Lat": 50.1153,
    "LocationID": "YXL"
  },
  {
    "NAME": "SMITHERS",
    "City": "SMITHERS",
    "PROV": "BC",
    "Lng": -127.1835,
    "Lat": 54.8247,
    "LocationID": "YYD"
  },
  {
    "NAME": "TIMMINS",
    "City": "TIMMINS",
    "PROV": "ON",
    "Lng": -81.3735,
    "Lat": 48.5712,
    "LocationID": "YTS"
  },
  {
    "NAME": "VANCOUVER INTL",
    "City": "VANCOUVER",
    "PROV": "BC",
    "Lng": -123.1626,
    "Lat": 49.1898,
    "LocationID": "YVR"
  },
  {
    "NAME": "ST. JOHN'S INTL",
    "City": "ST. JOHN'S",
    "PROV": "NL",
    "Lng": -52.7364,
    "Lat": 47.6184,
    "LocationID": "YYT"
  },
  {
    "NAME": "WHITEHORSE INTL",
    "City": "WHITEHORSE",
    "PROV": "YT",
    "Lng": -135.0675,
    "Lat": 60.7101,
    "LocationID": "YXY"
  },
  {
    "NAME": "YELLOWKNIFE",
    "City": "YELLOWKNIFE",
    "PROV": "NT",
    "Lng": -114.4424,
    "Lat": 62.463,
    "LocationID": "YZF"
  },
  {
    "NAME": "TORONTO/LESTER B. PEARSON INTL",
    "City": "MISSISSAUGA",
    "PROV": "ON",
    "Lng": -79.5987,
    "Lat": 43.6781,
    "LocationID": "YYZ"
  },
  {
    "NAME": "VAL-D'OR",
    "City": "VAL-D'OR",
    "PROV": "QC",
    "Lng": -77.7832,
    "Lat": 48.0535,
    "LocationID": "YVO"
  },
  {
    "NAME": "VICTORIA INTL",
    "City": "VICTORIA",
    "PROV": "BC",
    "Lng": -123.4304,
    "Lat": 48.6405,
    "LocationID": "YYJ"
  },
  {
    "NAME": "WINNIPEG JAMES ARMSTRONG RICHARDSON INTERNATIONAL AIRPORT",
    "City": "WINNIPEG",
    "PROV": "MB",
    "Lng": -97.2245,
    "Lat": 49.9076,
    "LocationID": "YWG"
  },
  {
    "NAME": "CORNWALL REGIONAL AIRPORT",
    "City": "SOUTH GLENGARRY",
    "PROV": "ON",
    "Lng": -74.5643,
    "Lat": 45.0924,
    "LocationID": "YCC"
  },
  {
    "NAME": "SHERBROOKE",
    "City": "SHERBROOKE",
    "PROV": "QC",
    "Lng": -71.6913,
    "Lat": 45.4386,
    "LocationID": "YSC"
  },
  {
    "NAME": "SUDBURY",
    "City": "SUDBURY",
    "PROV": "ON",
    "Lng": -80.789,
    "Lat": 46.6253,
    "LocationID": "YSB"
  },
  {
    "NAME": "LONDON",
    "City": "LONDON",
    "PROV": "ON",
    "Lng": -81.1482,
    "Lat": 43.0325,
    "LocationID": "YXU"
  },
  {
    "NAME": "NIAGARA FALLS/NIAGARA SOUTH",
    "City": "NIAGARA FALLS",
    "PROV": "ON",
    "Lng": -79.0636,
    "Lat": 42.9997,
    "LocationID": "NF9"
  },
  {
    "NAME": "PETERBOROUGH",
    "City": "PETERBOROUGH",
    "PROV": "ON",
    "Lng": -78.3535,
    "Lat": 44.2345,
    "LocationID": "YPQ"
  },
  {
    "NAME": "MONCTON/GREATER MONCTON INTL",
    "City": "MONCTON",
    "PROV": "NB",
    "Lng": -64.6849,
    "Lat": 46.1118,
    "LocationID": "YQM"
  },
  {
    "NAME": "FORT NELSON",
    "City": "FORT NELSON",
    "PROV": "BC",
    "Lng": -122.5893,
    "Lat": 58.8377,
    "LocationID": "YYE"
  },
  {
    "NAME": "CAPE DORSET",
    "City": "CAPE DORSET",
    "PROV": "NU",
    "Lng": -76.5247,
    "Lat": 64.2302,
    "LocationID": "YTE"
  },
  {
    "NAME": "CARTWRIGHT",
    "City": "CARTWRIGHT",
    "PROV": "NL",
    "Lng": -57.0373,
    "Lat": 53.6813,
    "LocationID": "YCA"
  },
  {
    "NAME": "CHILLIWACK",
    "City": "CHILLIWACK",
    "PROV": "BC",
    "Lng": -121.9387,
    "Lat": 49.1536,
    "LocationID": "YCW"
  },
  {
    "NAME": "CORAL HARBOUR",
    "City": "CORAL HARBOUR",
    "PROV": "NU",
    "Lng": -83.36,
    "Lat": 64.1938,
    "LocationID": "YZS"
  },
  {
    "NAME": "COUTTS/ROSS INTL",
    "City": "WARNER COUNTY",
    "PROV": "AB",
    "Lng": -111.9802,
    "Lat": 48.9989,
    "LocationID": "EP4"
  },
  {
    "NAME": "GRANDE PRAIRIE",
    "City": "GRANDE PRAIRIE",
    "PROV": "AB",
    "Lng": -118.8786,
    "Lat": 55.1799,
    "LocationID": "YQU"
  },
  {
    "NAME": "SLAVE LAKE AIRPORT",
    "City": "SLAVE LAKE",
    "PROV": "AB",
    "Lng": -114.7787,
    "Lat": 55.2932,
    "LocationID": "YZH"
  },
  {
    "NAME": "GUELPH AIRPORT",
    "City": "GUELPH",
    "PROV": "ON",
    "Lng": -80.1914,
    "Lat": 43.5639,
    "LocationID": "NC4"
  },
  {
    "NAME": "COLLINGWOOD",
    "City": "COLLINGWOOD",
    "PROV": "ON",
    "Lng": -80.1652,
    "Lat": 44.4507,
    "LocationID": "NY3"
  },
  {
    "NAME": "PEACE RIVER",
    "City": "PEACE RIVER",
    "PROV": "AB",
    "Lng": -117.4444,
    "Lat": 56.2287,
    "LocationID": "YPE"
  },
  {
    "NAME": "LETHBRIDGE",
    "City": "LETHBRIDGE",
    "PROV": "AB",
    "Lng": -112.7877,
    "Lat": 49.6325,
    "LocationID": "YQL"
  },
  {
    "NAME": "PRINCE RUPERT",
    "City": "PRINCE RUPERT",
    "PROV": "BC",
    "Lng": -130.4447,
    "Lat": 54.2859,
    "LocationID": "YPR"
  },
  {
    "NAME": "COMOX VALLEY AIRPORT",
    "City": "COMOX",
    "PROV": "BC",
    "Lng": -124.8898,
    "Lat": 49.7131,
    "LocationID": "YQQ"
  },
  {
    "NAME": "LAKE SIMCOE REGIONAL AIRPORT",
    "City": "ORO-MEDONTE",
    "PROV": "ON",
    "Lng": -79.5556,
    "Lat": 44.4853,
    "LocationID": "NB9"
  },
  {
    "NAME": "BRAMPTON",
    "City": "CALEDON",
    "PROV": "ON",
    "Lng": -79.8743,
    "Lat": 43.7606,
    "LocationID": "NC3"
  },
  {
    "NAME": "ABBOTSFORD",
    "City": "ABBOTSFORD",
    "PROV": "BC",
    "Lng": -122.3811,
    "Lat": 49.0219,
    "LocationID": "YXX"
  },
  {
    "NAME": "BAGOTVILLE",
    "City": "SAGUENAY",
    "PROV": "QC",
    "Lng": -70.9926,
    "Lat": 48.3319,
    "LocationID": "YBG"
  },
  {
    "NAME": "THUNDER BAY",
    "City": "THUNDER BAY",
    "PROV": "ON",
    "Lng": -89.3234,
    "Lat": 48.3722,
    "LocationID": "YQT"
  },
  {
    "NAME": "BAKER LAKE",
    "City": "BAKER LAKE",
    "PROV": "NU",
    "Lng": -96.0761,
    "Lat": 64.2984,
    "LocationID": "YBK"
  },
  {
    "NAME": "BAIE-COMEAU",
    "City": "POINTE-LEBEL",
    "PROV": "QC",
    "Lng": -68.1943,
    "Lat": 49.1335,
    "LocationID": "YBC"
  },
  {
    "NAME": "BUFFALO NARROWS",
    "City": "BUFFALO NARROWS",
    "PROV": "SK",
    "Lng": -108.4213,
    "Lat": 55.8452,
    "LocationID": "YVT"
  },
  {
    "NAME": "ATWOOD",
    "City": "ELMA",
    "PROV": "ON",
    "Lng": -81.003,
    "Lat": 43.6934,
    "LocationID": "NN4"
  },
  {
    "NAME": "BALDWIN AIRPORT",
    "City": "GEORGINA",
    "PROV": "ON",
    "Lng": -79.3407,
    "Lat": 44.2673,
    "LocationID": "PB9"
  },
  {
    "NAME": "BARRHEAD",
    "City": "BARRHEAD COUNTY",
    "PROV": "AB",
    "Lng": -114.4391,
    "Lat": 54.0967,
    "LocationID": "EP3"
  },
  {
    "NAME": "CALGARY INTERNATIONAL AIRPORT",
    "City": "CALGARY",
    "PROV": "AB",
    "Lng": -114.0072,
    "Lat": 51.1147,
    "LocationID": "YYC"
  },
  {
    "NAME": "CAMBRIDGE BAY",
    "City": "CAMBRIDGE BAY",
    "PROV": "NU",
    "Lng": -105.1378,
    "Lat": 69.1168,
    "LocationID": "YCB"
  },
  {
    "NAME": "CAMPBELL RIVER",
    "City": "CAMPBELL RIVER",
    "PROV": "BC",
    "Lng": -125.2713,
    "Lat": 49.9508,
    "LocationID": "YBL"
  },
  {
    "NAME": "CANORA",
    "City": "CANORA",
    "PROV": "SK",
    "Lng": -102.4491,
    "Lat": 51.6289,
    "LocationID": "JR7"
  },
  {
    "NAME": "CHARLOTTETOWN",
    "City": "CHARLOTTETOWN",
    "PROV": "PE",
    "Lng": -63.1257,
    "Lat": 46.2886,
    "LocationID": "YYG"
  },
  {
    "NAME": "BRADFORD",
    "City": "BRADFORD",
    "PROV": "ON",
    "Lng": -79.6289,
    "Lat": 44.1361,
    "LocationID": "PM7"
  },
  {
    "NAME": "CHARLOTTETOWN",
    "City": "CHARLOTTETOWN",
    "PROV": "NL",
    "Lng": -56.1156,
    "Lat": 52.765,
    "LocationID": "CH4"
  },
  {
    "NAME": "CHESTERFIELD INLET",
    "City": "CHESTERFIELD INLET",
    "PROV": "NU",
    "Lng": -90.7368,
    "Lat": 63.3465,
    "LocationID": "YCS"
  },
  {
    "NAME": "CHURCHILL",
    "City": "CHURCHILL",
    "PROV": "MB",
    "Lng": -94.0669,
    "Lat": 58.7373,
    "LocationID": "YYQ"
  },
  {
    "NAME": "CHAMBLY",
    "City": "CHAMBLY",
    "PROV": "QC",
    "Lng": -73.2947,
    "Lat": 45.402,
    "LocationID": "TT2"
  },
  {
    "NAME": "COLD LAKE REGIONAL",
    "City": "COLD LAKE",
    "PROV": "AB",
    "Lng": -110.2695,
    "Lat": 54.4777,
    "LocationID": "EN5"
  },
  {
    "NAME": "CLEARWATER",
    "City": "STANLEY",
    "PROV": "NB",
    "Lng": -66.8286,
    "Lat": 46.7134,
    "LocationID": "DJ4"
  },
  {
    "NAME": "DEER LAKE",
    "City": "DEER LAKE",
    "PROV": "NL",
    "Lng": -57.3915,
    "Lat": 49.2112,
    "LocationID": "YDF"
  },
  {
    "NAME": "CRANBROOK",
    "City": "CRANBROOK",
    "PROV": "BC",
    "Lng": -115.782,
    "Lat": 49.6107,
    "LocationID": "YXC"
  },
  {
    "NAME": "DAWSON",
    "City": "DAWSON CITY",
    "PROV": "YT",
    "Lng": -139.1304,
    "Lat": 64.042,
    "LocationID": "YDA"
  },
  {
    "NAME": "ELK LAKE",
    "City": "JAMES",
    "PROV": "ON",
    "Lng": -80.3151,
    "Lat": 47.7289,
    "LocationID": "PE3"
  },
  {
    "NAME": "FREDERICTON",
    "City": "FREDERICTON",
    "PROV": "NB",
    "Lng": -66.5233,
    "Lat": 45.8706,
    "LocationID": "YFC"
  },
  {
    "NAME": "GANDER INTL",
    "City": "GANDER",
    "PROV": "NL",
    "Lng": -54.5629,
    "Lat": 48.937,
    "LocationID": "YQX"
  },
  {
    "NAME": "GOOSE BAY",
    "City": "HAPPY VALLEY-GOOSE BAY",
    "PROV": "NL",
    "Lng": -60.4026,
    "Lat": 53.3181,
    "LocationID": "YYR"
  },
  {
    "NAME": "FORT MCMURRAY",
    "City": "WOOD BUFFALO",
    "PROV": "AB",
    "Lng": -111.2217,
    "Lat": 56.6532,
    "LocationID": "YMM"
  },
  {
    "NAME": "FORT RESOLUTION",
    "City": "FORT RESOLUTION",
    "PROV": "NT",
    "Lng": -113.6889,
    "Lat": 61.1802,
    "LocationID": "YFR"
  },
  {
    "NAME": "FORT MCPHERSON",
    "City": "FORT MCPHERSON",
    "PROV": "NT",
    "Lng": -134.86,
    "Lat": 67.4078,
    "LocationID": "ZFM"
  },
  {
    "NAME": "FORT SIMPSON",
    "City": "FORT SIMPSON",
    "PROV": "NT",
    "Lng": -121.237,
    "Lat": 61.7604,
    "LocationID": "YFS"
  },
  {
    "NAME": "GRISE FIORD",
    "City": "GRISE FIORD",
    "PROV": "NU",
    "Lng": -82.9092,
    "Lat": 76.4258,
    "LocationID": "YGZ"
  },
  {
    "NAME": "FORT PROVIDENCE",
    "City": "FORT PROVIDENCE",
    "PROV": "NT",
    "Lng": -117.606,
    "Lat": 61.3191,
    "LocationID": "YJP"
  },
  {
    "NAME": "HALIFAX ROBERT L. STANFIELD INTERNATIONAL AIRPORT",
    "City": "HALIFAX",
    "PROV": "NS",
    "Lng": -63.5149,
    "Lat": 44.8866,
    "LocationID": "YHZ"
  },
  {
    "NAME": "HAMILTON",
    "City": "HAMILTON",
    "PROV": "ON",
    "Lng": -79.9276,
    "Lat": 43.1612,
    "LocationID": "YHM"
  },
  {
    "NAME": "HALL BEACH",
    "City": "HALL BEACH",
    "PROV": "NU",
    "Lng": -81.2352,
    "Lat": 68.7727,
    "LocationID": "YUX"
  },
  {
    "NAME": "KIPLING",
    "City": "KIPLING",
    "PROV": "SK",
    "Lng": -102.6147,
    "Lat": 50.1002,
    "LocationID": "KD5"
  },
  {
    "NAME": "LA MACAZA/MONT-TREMBLANT INTL INC",
    "City": "LA MACAZA",
    "PROV": "QC",
    "Lng": -74.7802,
    "Lat": 46.4096,
    "LocationID": "YFJ"
  },
  {
    "NAME": "GREENWOOD",
    "City": "KINGS, SUBD. A",
    "PROV": "NS",
    "Lng": -64.9018,
    "Lat": 44.9847,
    "LocationID": "YZX"
  },
  {
    "NAME": "HAY RIVER",
    "City": "HAY RIVER",
    "PROV": "NT",
    "Lng": -115.7846,
    "Lat": 60.8396,
    "LocationID": "YHY"
  },
  {
    "NAME": "INUVIK (MIKE ZUBKO)",
    "City": "INUVIK",
    "PROV": "NT",
    "Lng": -133.4799,
    "Lat": 68.3057,
    "LocationID": "YEV"
  },
  {
    "NAME": "KAMLOOPS",
    "City": "KAMLOOPS",
    "PROV": "BC",
    "Lng": -120.4372,
    "Lat": 50.703,
    "LocationID": "YKA"
  },
  {
    "NAME": "HOLMAN",
    "City": "HOLMAN",
    "PROV": "NT",
    "Lng": -117.8001,
    "Lat": 70.7639,
    "LocationID": "YHI"
  },
  {
    "NAME": "IGLOOLIK",
    "City": "IGLOOLIK",
    "PROV": "NU",
    "Lng": -81.8244,
    "Lat": 69.3668,
    "LocationID": "YGT"
  },
  {
    "NAME": "KUUJJUAQ",
    "City": "KUUJJUAQ",
    "PROV": "QC",
    "Lng": -68.4232,
    "Lat": 58.106,
    "LocationID": "YVP"
  },
  {
    "NAME": "LA GRANDE RIVIERE",
    "City": "BAIE-JAMES",
    "PROV": "QC",
    "Lng": -77.7036,
    "Lat": 53.6252,
    "LocationID": "YGL"
  },
  {
    "NAME": "KENORA",
    "City": "KENORA",
    "PROV": "ON",
    "Lng": -94.3583,
    "Lat": 49.7894,
    "LocationID": "YQK"
  },
  {
    "NAME": "KINGSTON",
    "City": "KINGSTON",
    "PROV": "ON",
    "Lng": -76.5959,
    "Lat": 44.2251,
    "LocationID": "YGK"
  },
  {
    "NAME": "KITCHENER/WATERLOO REGIONAL",
    "City": "KITCHENER",
    "PROV": "ON",
    "Lng": -80.383,
    "Lat": 43.4587,
    "LocationID": "YKF"
  },
  {
    "NAME": "MACKENZIE",
    "City": "MACKENZIE",
    "PROV": "BC",
    "Lng": -123.1341,
    "Lat": 55.2985,
    "LocationID": "YZY"
  },
  {
    "NAME": "LANGLEY AIRPORT",
    "City": "LANGLEY",
    "PROV": "BC",
    "Lng": -122.6258,
    "Lat": 49.1007,
    "LocationID": "YNJ"
  },
  {
    "NAME": "KELOWNA",
    "City": "KELOWNA",
    "PROV": "BC",
    "Lng": -119.3782,
    "Lat": 49.9591,
    "LocationID": "YLW"
  },
  {
    "NAME": "MEDICINE HAT AIRPORT",
    "City": "MEDICINE HAT",
    "PROV": "AB",
    "Lng": -110.7209,
    "Lat": 50.0191,
    "LocationID": "YXH"
  },
  {
    "NAME": "MELBOURNE",
    "City": "CARADOC",
    "PROV": "ON",
    "Lng": -81.5488,
    "Lat": 42.8244,
    "LocationID": "NM2"
  },
  {
    "NAME": "MONTREAL-MIRABEL INTERNATIONAL AIRPORT",
    "City": "MIRABEL",
    "PROV": "QC",
    "Lng": -74.0322,
    "Lat": 45.6836,
    "LocationID": "YMX"
  },
  {
    "NAME": "MUSKOKA",
    "City": "GRAVENHURST",
    "PROV": "ON",
    "Lng": -79.3066,
    "Lat": 44.9766,
    "LocationID": "YQA"
  },
  {
    "NAME": "POND INLET",
    "City": "POND INLET",
    "PROV": "NU",
    "Lng": -77.9643,
    "Lat": 72.6911,
    "LocationID": "YIO"
  },
  {
    "NAME": "MONTREAL INTL (TRUDEAU)",
    "City": "MONTREAL",
    "PROV": "QC",
    "Lng": -73.7391,
    "Lat": 45.4689,
    "LocationID": "YUL"
  },
  {
    "NAME": "NANAIMO",
    "City": "NANAIMO",
    "PROV": "BC",
    "Lng": -123.8704,
    "Lat": 49.0525,
    "LocationID": "YCD"
  },
  {
    "NAME": "OLD CROW",
    "City": "OLD CROW",
    "PROV": "YT",
    "Lng": -139.8389,
    "Lat": 67.5699,
    "LocationID": "YOC"
  },
  {
    "NAME": "OWEN SOUND/BILLY BISHOP REGIONAL",
    "City": "SYDENHAM",
    "PROV": "ON",
    "Lng": -80.8375,
    "Lat": 44.5903,
    "LocationID": "YOS"
  },
  {
    "NAME": "NELSON",
    "City": "NELSON",
    "PROV": "BC",
    "Lng": -117.3003,
    "Lat": 49.4941,
    "LocationID": "ZNL"
  },
  {
    "NAME": "OTTAWA/MACDONALD-CARTIER INTL",
    "City": "GLOUCESTER",
    "PROV": "ON",
    "Lng": -75.6687,
    "Lat": 45.3235,
    "LocationID": "YOW"
  },
  {
    "NAME": "RED DEER REGIONAL",
    "City": "RED DEER",
    "PROV": "AB",
    "Lng": -113.889,
    "Lat": 52.1788,
    "LocationID": "YQF"
  },
  {
    "NAME": "SASKATOON/JOHN G. DIEFENBAKER INTL",
    "City": "SASKATOON",
    "PROV": "SK",
    "Lng": -106.6958,
    "Lat": 52.1711,
    "LocationID": "YXE"
  },
  {
    "NAME": "PRINCETON",
    "City": "PRINCETON",
    "PROV": "BC",
    "Lng": -120.5116,
    "Lat": 49.4674,
    "LocationID": "YDC"
  },
  {
    "NAME": "QUEBEC/JEAN LESAGE INTL",
    "City": "QUEBEC CITY",
    "PROV": "QC",
    "Lng": -71.3858,
    "Lat": 46.791,
    "LocationID": "YQB"
  },
  {
    "NAME": "PORT ALBERNI (ALBERNI VALLEY REGIONAL)",
    "City": "ALBERNI-CLAYOQUOT",
    "PROV": "BC",
    "Lng": -124.9361,
    "Lat": 49.3222,
    "LocationID": "BS8"
  },
  {
    "NAME": "PRINCE GEORGE",
    "City": "PRINCE GEORGE",
    "PROV": "BC",
    "Lng": -122.668,
    "Lat": 53.8895,
    "LocationID": "YXS"
  },
  {
    "NAME": "EARLTON (TIMISKAMING REGIONAL)",
    "City": "ARMSTRONG",
    "PROV": "ON",
    "Lng": -79.8471,
    "Lat": 47.6976,
    "LocationID": "YXR"
  },
  {
    "NAME": "EDMONTON INTL",
    "City": "EDMONTON",
    "PROV": "AB",
    "Lng": -113.5883,
    "Lat": 53.3098,
    "LocationID": "YEG"
  },
  {
    "NAME": "ESSEX",
    "City": "COLCHESTER NORTH",
    "PROV": "ON",
    "Lng": -82.8795,
    "Lat": 42.096,
    "LocationID": "NE9"
  },
  {
    "NAME": "FORT GOOD HOPE",
    "City": "FORT GOOD HOPE",
    "PROV": "NT",
    "Lng": -128.6064,
    "Lat": 66.2634,
    "LocationID": "YGH"
  },
  {
    "NAME": "FORT ST. JOHN",
    "City": "PEACE RIVER",
    "PROV": "BC",
    "Lng": -120.7261,
    "Lat": 56.2384,
    "LocationID": "YXJ"
  },
  {
    "NAME": "IQALUIT",
    "City": "IQALUIT",
    "PROV": "NU",
    "Lng": -68.5558,
    "Lat": 63.7564,
    "LocationID": "YFB"
  },
  {
    "NAME": "NORTH BAY",
    "City": "NORTH BAY",
    "PROV": "ON",
    "Lng": -79.4226,
    "Lat": 46.3635,
    "LocationID": "YYB"
  },
  {
    "NAME": "GATINEAU AIRPORT",
    "City": "GATINEAU",
    "PROV": "QC",
    "Lng": -75.5636,
    "Lat": 45.5215,
    "LocationID": "YND"
  },
  {
    "NAME": "REGINA INTERNATIONAL AIRPORT",
    "City": "REGINA",
    "PROV": "SK",
    "Lng": -104.6661,
    "Lat": 50.4322,
    "LocationID": "YQR"
  },
  {
    "NAME": "SAINT JOHN AIRPORT",
    "City": "SAINT JOHN",
    "PROV": "NB",
    "Lng": -65.883,
    "Lat": 45.3162,
    "LocationID": "YSJ"
  },
  {
    "NAME": "THOMPSON",
    "City": "MYSTERY LAKE",
    "PROV": "MB",
    "Lng": -97.8562,
    "Lat": 55.8024,
    "LocationID": "YTH"
  },
  {
    "NAME": "BILLY BISHOP TORONTO CITY AIRPORT",
    "City": "TORONTO",
    "PROV": "ON",
    "Lng": -79.394,
    "Lat": 43.6281,
    "LocationID": "YTZ"
  }
]
